TDWG,LEVEL3_NAME,Lon,Lat,Area,Clim.PC1,Clim.PC2,MAT_ANO,MTCQ_ANO,ELE_STD,MAT_STD,realm,wals,glottolog,Human,vas_rich,med_rich,residuals
ABT,Alberta,-114.5109586,55.16847238,660544.61,-4.568004613,-0.520918815,275.1756488,392.6241211,410.3132678,2.075433772,Nearctic,3,5,16,1647,758,39.61521539
AFG,Afghanistan,66.02653864,33.83890296,642131.1,-3.014177464,2.056554017,51.2574734,48.84003999,1103.846183,7.606659479,Palearctic,7,34,65,4535,1334,65.43062592
AGE,Argentina Northeast,-61.25823203,-32.60227234,1123396.67,-0.382888934,1.105104995,130.5809264,71.84914487,181.1500651,2.691479328,Neotropic,5,9,10,5360,1601,175.2622442
AGS,Argentina South,-68.83039105,-44.42958738,783430.9,-2.541711636,0.287737522,43.21400012,19.00322832,452.4247604,3.195729675,Neotropic,2,5,10,2097,426,-378.1129928
AGW,Argentina Northwest,-66.36119564,-29.14959223,874445.12,-1.560150614,1.794804491,94.9809391,40.83799646,1489.780746,6.741088334,Neotropic,5,4,10,5387,1430,-0.881448259
ALA,Alabama,-86.82906784,32.79389912,134488.53,0.057529331,-0.746814391,70.57170727,61.16719631,90.42991622,1.294206178,Nearctic,2,2,16,3062,1011,23.0476274
ALB,Albania,20.06837242,41.14254637,28638.71,-1.175235344,-0.651178009,43.15322031,28.95328111,527.2114344,3.244158777,Palearctic,1,2,45,3457,1269,205.7973113
ALD,Aldabra,46.38345351,-9.412807798,183.83,2.391661526,1.927995012,211.2387466,197.1352514,1.811129582,0.053575146,Afrotropic,0,0,2,197,115,-327.1494471
ALG,Algeria,2.632362328,28.1633545,2320939.88,-1.289051381,3.782319739,157.2535396,92.17788432,320.7351776,3.48223978,Palearctic,5,14,130,3662,1080,-22.25665019
ALT,Altay,84.13073238,51.96816239,262320.43,-4.725808418,-0.567959385,75.48530358,224.5489161,803.5152282,3.121499541,Palearctic,1,2,40,2606,940,38.91887837
ALU,Aleutian Is.,-108.5379159,52.80766048,12573.62,-1.599634209,-3.50403214,20.76833729,73.64988854,236.1872693,1.021442356,Nearctic,0,1,25,370,137,-338.1071805
AMU,Amur,127.7254487,53.39992279,360081.14,-6.035386465,-0.309086934,145.5983596,360.491662,312.6863263,2.450723429,Palearctic,0,0,30,1440,742,63.05019116
AND,Andaman Is.,92.78132302,12.27997874,5958.87,4.654861441,0.188431196,219.5582687,210.7371682,60.85287134,0.326984913,Indomalaya,5,13,65,1813,1212,461.9910319
ANG,Angola,17.57181504,-12.3357622,1245269.91,0.713475672,2.350723546,159.1020835,137.0755072,368.4770455,1.71519186,Afrotropic,4,29,12,6216,2233,644.1881415
ANT,Antarctica,21.30394693,-80.44593994,12302932.39,,,,,925.967016,10.60687346,Antarctica,0,0,0,3,0,-405.191064
ARI,Arizona,-111.6575963,34.29669616,294300.97,-1.871334769,2.548568745,51.99122858,39.56592159,625.0372728,4.726083347,Nearctic,9,8,16,3622,1311,216.363635
ARK,Arkansas,-92.44235749,34.90084347,137550.68,-0.581806874,-0.398136231,3.891932387,156.9174658,135.1278583,1.051513635,Nearctic,1,2,16,2197,834,10.83629426
ARU,Aruba,-69.97713313,12.51668736,207.19,1.67017726,2.880343926,219.6099229,207.9838049,28.72214521,0.136693298,Neotropic,0,1,14,288,173,-286.4855959
ASC,Ascension,-14.3632866,-7.938079755,98.83,0.144666424,1.725236341,208.4331848,195.1340393,148.0764062,0.801061734,Afrotropic,0,0,0.2,36,17,-394.4777993
ASK,Alaska,-152.4711869,64.30501188,1488696.33,-5.017512151,-1.683454313,132.0814377,254.5218071,481.2937594,4.152475128,Nearctic,15,18,25,1402,509,-162.7105379
ASP,Amsterdam-St. Paul Is.,77.53284994,-37.97877628,71.95,0.233778708,-2.573478156,87.4446284,65.1615448,241.0815942,0.96220859,Afrotropic,0,0,0.1,31,4,-406.5252636
ASS,Assam,92.85194548,25.4827162,171631.7,3.384766269,-0.226813852,168.1066174,112.1081821,497.8982886,2.531917378,Indomalaya,26,98,65,6430,3378,1748.419616
ATP,Antipodean Is.,167.927082,-50.99242823,857.85,-0.266683344,-4.12921385,31.62052429,6.844272242,134.6738733,0.749005993,Australasia,0,0,1,207,18,-426.0545184
AUT,Austria,14.13049501,47.5920478,83894.92,-1.929471712,-1.909116518,36.32000998,133.747252,651.3052854,3.122370695,Palearctic,3,2,40,3863,1149,8.451416821
AZO,Azores,-27.06916208,38.2706244,2100.72,0.531277729,-0.833007613,119.3874279,89.69241032,258.091787,1.355299554,Palearctic,0,0,1.3,563,272,-239.8750564
BAH,Bahamas,-76.5004385,24.1666829,12841.59,1.896213928,1.196115678,199.1522005,165.381482,3.727549644,0.585953046,Neotropic,0,1,7,1084,483,-128.1292708
BAL,Baleares,2.900068554,39.55938907,5096.71,-0.97049065,1.142261038,103.6466475,56.71523123,154.1809148,0.914011804,Palearctic,0,0,6,1479,608,-78.37958689
BAN,Bangladesh,90.27093153,23.83299497,139139.27,3.257921806,0.827363403,201.1238103,144.1856551,57.60787604,0.538492691,Indomalaya,6,21,65,4175,2814,1614.013192
BEN,Benin,2.343259931,9.647652716,116649.54,2.269541582,2.723154244,209.1045242,193.3928289,112.8801571,0.720878203,Afrotropic,8,36,12,2321,1468,621.2134102
BER,Bermuda,-64.75637722,32.31349498,40.28,1.961599596,-0.880955947,160.8535614,119.6366692,10.96303829,0.152081958,Nearctic,0,0,0.4,199,123,-319.5304614
BGM,Belgium,4.773152529,50.576268,33107.28,-1.692115935,-1.660076032,9.307508107,92.70792626,165.0234208,0.834533497,Palearctic,4,5,45,2033,840,48.07946347
BIS,Bismarck Archipelago,150.6265362,-4.936901663,49137.17,6.392689009,-3.987233247,196.9762971,188.28372,393.2091652,1.899323335,Australasia,24,89,30,1666,540,-182.0044201
BKN,Burkina,-1.739834269,12.27792186,273387.67,1.700893665,3.840481873,215.3801364,188.3831084,48.40812177,0.542497687,Afrotropic,18,56,15,1844,1135,379.0853109
BLR,Belarus,28.04696571,53.5402221,206854.04,-2.934357694,-1.021973602,107.9227647,273.4953773,29.39100698,0.580304112,Palearctic,1,1,30,1485,803,115.4773703
BLT,Baltic States,24.50203088,56.67179107,188287.34,-2.833257283,-1.146982066,186.2132084,324.7294357,50.37757239,0.660992802,Palearctic,6,10,30,1763,773,32.51638839
BLZ,Belize,-88.68282364,17.2185052,22210.93,3.386434483,0.230545428,186.2020151,158.8445379,229.469567,1.172682399,Neotropic,2,2,12,3625,1249,153.7921136
BOL,Bolivia,-64.67053986,-16.71511345,1090169.43,1.095280282,1.356283709,142.0783517,113.2303971,1544.341325,7.24102086,Neotropic,21,52,10,14848,2761,-472.2693987
BOR,Borneo,114.2000166,0.867890526,743471.14,5.968799938,-3.095746543,196.4854296,189.1283415,333.7566754,1.737956398,Indomalaya,24,142,40,11883,2340,-328.4157603
BOT,Botswana,23.81507477,-22.18204586,579812.1,-0.555457562,3.508910407,146.5582168,94.39716895,102.6957626,1.2463167,Afrotropic,9,14,150,2498,1308,427.4936483
BRC,British Columbia,-124.7569631,54.75407132,942638.47,-3.371001364,-2.055930275,185.9812388,271.8611897,508.9468256,3.122010879,Nearctic,22,30,10,2344,937,85.83174625
BRY,Buryatiya,109.5025411,53.55446059,350886.04,-5.881169511,-0.459605857,148.3832971,333.7103481,462.3159488,2.426107035,Palearctic,1,2,40,1809,736,-13.24693956
BUL,Bulgaria,25.2313767,42.76135302,110817.8,-2.26141761,-0.182397995,28.18258663,77.65996578,428.8042745,1.998745909,Palearctic,1,4,45,4010,1329,160.4468688
BUR,Burundi,29.88681075,-3.356304234,27302.15,1.058398861,1.14960176,140.9798945,136.0937546,365.0694114,2.130573044,Afrotropic,1,2,200,2811,1258,317.8649169
BZC,Brazil West-Central,-54.29442685,-15.29799181,1613687.98,2.280228093,1.562744949,179.5616944,161.0295142,210.1668352,1.377696464,Neotropic,19,47,10,9862,1916,-367.400852
BZE,Brazil Northeast,-41.7295316,-8.635179224,1550737.62,1.854678514,2.218537418,191.3792139,178.1179342,245.867681,1.730466826,Neotropic,8,38,10,11435,2004,-579.0685664
BZL,Brazil Southeast,-45.48097772,-19.72534707,926895.03,1.475595646,1.200629477,158.326586,130.7421665,276.4342811,1.769921256,Neotropic,0,13,10,18200,2115,-1756.849296
BZN,Brazil North,-59.25074171,-4.630617529,3849262.88,4.131891891,-0.120833799,199.5711508,191.2109118,132.5857677,0.764006944,Neotropic,49,161,10,13451,2200,-767.1309391
BZS,Brazil South,-52.26177998,-27.56814167,565569.48,1.365412739,-1.283612572,129.7580639,86.56043097,332.6146305,1.608599624,Neotropic,2,7,10,8568,1667,-369.8846266
CAB,Cabinda,12.46228731,-5.041229577,7012.16,1.736993808,1.911551218,189.763003,163.2672267,143.3224811,0.573111962,Afrotropic,1,0,12,939,441,-142.5057371
CAF,Central African Republic,20.48276784,6.571447681,621235.16,2.002555506,2.168010427,197.9884183,184.6416802,142.5963262,0.919652396,Afrotropic,12,57,130,3694,1894,785.6471217
CAL,California,-119.5874549,37.23999046,407654.86,-1.732774474,1.788476004,54.9457176,14.90949422,738.2774312,4.974584464,Nearctic,47,69,16,5765,1388,-114.8931431
CAY,Cayman Is.,-80.82909683,19.431525,307.33,2.863612239,1.247295809,207.1976406,189.95127,7.018428793,0.115029179,Neotropic,0,1,0.3,554,340,-170.1604923
CBD,Cambodia,104.9212402,12.7140315,182705.02,2.943330401,1.782910711,205.5980101,179.5987727,179.7039787,1.135788778,Indomalaya,3,15,65,3933,2181,1027.115918
CGS,Chagos Archipelago,72.28982913,-7.081251358,104.91,5.21818864,-1.900260828,223.1556244,216.2027771,3.032417444,0.078631834,Indomalaya,0,0,0.3,53,42,-372.7164205
CHA,Chad,18.66460375,15.3611377,1276294.66,0.30662706,4.676398198,208.6925731,162.7757914,301.2634237,2.127939839,Afrotropic,35,113,130,2150,1232,417.7901293
CHC,China South-Central,104.640891,28.51736896,1309800.04,-1.08183143,0.143054843,81.84946299,6.90663574,1346.609026,6.201197648,Indomalaya,25,200,45,20177,6264,2015.518109
CHH,Hainan,109.7420098,19.20103623,34129.1,2.039776805,0.911064512,201.933665,137.7811541,227.7699346,1.080519723,Indomalaya,2,6,40,3627,1889,793.4110993
CHI,Inner Mongolia,113.5548353,43.79697592,1200606.05,-4.727002305,1.184020032,44.59263356,204.3411055,398.9420111,4.043007013,Palearctic,3,5,40,2775,1351,417.7231735
CHM,Manchuria,126.4988421,45.75175656,788395.11,-4.424554465,0.440680985,67.07202629,250.1440576,238.3028974,3.254272041,Palearctic,4,4,40,2485,1308,429.970241
CHN,China North-Central,109.454869,37.42761071,1109792.56,-3.151925728,1.142167446,26.8480636,95.83707974,917.6950692,3.936602377,Palearctic,2,12,45,5564,2667,1202.39879
CHQ,Qinghai,96.04684807,35.77342914,734082.98,-5.087105501,-0.347587657,77.49822199,171.7693148,785.6917169,3.743041403,Palearctic,8,8,45,2207,922,96.93122297
CHS,China Southeast,114.4271419,28.08960648,1427334.33,0.079326636,0.141787221,119.6379544,24.10534357,292.4304006,2.57081938,Indomalaya,11,61,45,11471,4749,2159.073177
CHT,Tibet,88.11841654,31.712301,1134671.81,-4.938502363,-0.565153384,82.51921839,164.672013,490.9967487,3.568806749,Palearctic,8,20,50,7108,2585,826.2557822
CHX,Xinjiang,85.25096208,41.12316666,1629675.9,-4.685991182,1.328710775,14.63067693,147.0643583,1417.682159,6.898580767,Palearctic,3,10,40,3467,1027,-38.10775997
CKI,Cocos (Keeling) Is.,96.85559708,-12.17188243,28.85,4.272961121,-0.915787706,214.4408264,207.2099915,2.351725376,0.022628764,Indomalaya,0,0,0.1,76,66,-353.0980845
CLC,Chile Central,-71.50360801,-34.96793939,186470.85,-1.052102992,0.12425078,60.62889925,20.20202758,1037.745266,4.532190828,Neotropic,1,3,12,3023,494,-486.5225946
CLM,Colombia,-73.07536004,3.899940025,1140611.73,4.672155791,-1.447271567,186.3631315,176.6159272,823.7520747,4.499886827,Neotropic,54,98,12,24931,2846,-2308.152784
CLN,Chile North,-69.43770693,-23.869117,260185.44,-2.25216232,1.499109382,58.27058969,26.89686078,1569.48582,5.110060978,Neotropic,1,2,12,1751,326,-412.1975261
CLS,Chile South,-72.52704616,-48.21628617,298607.44,-0.275060627,-4.039293835,15.14847666,48.34311402,458.1975642,2.698776518,Neotropic,2,6,12,1378,290,-377.1383668
CMN,Cameroon,12.74325047,5.685796322,466812.82,2.828664717,1.106343365,188.0206428,175.0022974,320.3100686,1.693891302,Afrotropic,53,250,12,7110,2491,731.8747679
CNT,Connecticut,-72.72758095,41.62574308,12824.64,-1.905070238,-1.915728939,158.4259389,272.2414285,101.7162933,0.828326513,Nearctic,0,3,16,1747,872,134.5645025
CNY,Canary Is.,-15.67748558,28.33813028,7532.12,-0.710194823,1.690107563,133.9385134,103.5995605,551.8222524,2.827480619,Palearctic,1,1,3,1650,438,-280.956306
COL,Colorado,-105.5337039,38.99914653,269942.4,-3.491126643,0.763729065,59.53045003,173.6903257,688.5419182,3.841123032,Nearctic,2,1,16,2777,1115,181.3421593
COM,Comoros,43.9794997,-12.08508881,2181.96,3.476926198,-0.293539889,185.6208615,170.9342484,455.5752779,2.449787932,Afrotropic,0,5,1.3,1105,427,-188.1299205
CON,Congo,15.22427245,-0.840074754,345578.76,2.823933945,0.77853987,182.3171147,169.5925301,138.2806152,0.746556415,Afrotropic,8,43,12,3985,1756,592.209547
COO,Cook Is.,-158.7919122,-20.68746738,201.61,3.495850366,-1.395040859,197.2455254,181.5969448,79.51185641,0.884205664,Oceania,0,1,1.1,296,144,-317.0096529
COR,Corse,9.105312296,42.15818981,8769.16,-1.136274827,0.044702768,59.05786604,10.15913792,485.7765958,2.577571395,Palearctic,0,1,11,2214,903,76.59767306
COS,Costa Rica,-84.18900416,9.970483318,51272.68,4.576512316,-1.177139094,188.3624452,178.0117473,681.0988531,3.893273887,Neotropic,3,12,12,10703,1793,-650.6173477
CPI,C. American Pacific Is.,-91.88643742,6.546287354,31.96,8.93444229,-3.872620529,212.7206116,200.7122803,126.3246963,1.739049982,Neotropic,0,0,0.2,208,91,-353.2450255
CPP,Cape Provinces,22.53403917,-30.90217924,662119.88,-1.340716631,2.11802639,120.5157097,60.93152961,418.8848633,2.041934533,Afrotropic,5,9,150,15755,2263,-1143.059365
CPV,Caprivi Strip,23.25700383,-17.92034394,20155.9,-0.067142352,3.554583713,157.1396087,114.3279027,44.69306219,0.466462356,Afrotropic,1,3,150,602,397,-122.3048345
CRL,Caroline Is.,146.7114782,7.212394877,1286.92,7.520106766,-4.861155873,221.6677132,218.7296126,117.5448872,0.668167076,Oceania,4,4,0,1036,443,-158.9849286
CRZ,Crozet Is.,51.61850122,-46.34319821,352.68,0.943530269,-6.080800564,3.888538904,17.1660805,203.7395896,0.954801295,Antarctica,0,0,0.06,22,4,-404.8106995
CTA,Chita,116.2008257,52.8406914,430105.88,-6.173561369,-0.034487925,145.2683138,348.2564599,307.0971652,2.580541043,Palearctic,0,0,40,1527,697,1.476070906
CTM,Chatham Is.,-176.5029737,-43.95966232,704.03,-0.526677894,-1.957391952,72.10951309,41.58112301,82.21068455,0.514425984,Australasia,0,0,0.5,358,44,-428.8210949
CUB,Cuba,-79.03522543,21.62012559,110269.75,2.215893147,1.259701019,196.6877868,169.0617778,151.2496663,0.991077597,Neotropic,0,2,7,6148,1105,-470.8573737
CVI,Cape Verde,-24.10306511,15.98732287,3537.42,0.551144294,2.957937532,166.5116812,149.2822933,444.4205182,2.430069014,Afrotropic,0,1,0.5,535,310,-196.5408568
CYP,Cyprus,33.21867825,35.04300313,9259.08,-1.029525766,2.204317585,119.4501191,54.44307596,291.0400727,1.811098624,Palearctic,2,3,12,1643,648,-69.62275609
CZE,Czechoslovakia,16.90966574,49.35117627,127274.32,-2.367500362,-0.842306846,41.90790799,154.9603633,238.0079903,1.453486968,Palearctic,2,5,30,3666,1100,-3.018678704
DEL,Delaware,-75.51281006,38.99814067,5064.58,-1.034041467,-0.865495742,67.35546941,201.937097,19.00756348,0.354974879,Nearctic,0,1,16,1572,717,12.90325009
DEN,Denmark,10.05081371,55.96231824,42756.69,-2.183586532,-1.437577179,131.2444207,244.8316756,24.56854459,0.449776451,Palearctic,1,5,12,1824,670,-82.1045465
DJI,Djibouti,42.57794604,11.7498223,21518.48,0.7127106,3.602764993,228.1364944,182.4743687,286.1612702,1.776861734,Afrotropic,0,0,130,782,457,-96.59611775
DOM,Dominican Republic,-70.48543965,18.89309066,48566.42,2.283478703,0.805523348,188.3181292,170.4286964,485.6259062,3.172447938,Neotropic,0,1,7,3948,971,-185.7416892
DSV,Desventurados Is.,-79.9604038,-26.31159104,6.01,,,,,78.13577926,0.287868133,Neotropic,0,0,0,28,10,-399.9537422
EAI,East Aegean Is.,26.7956822,37.77924814,5593.28,-0.820662894,1.272775633,102.7201263,27.21949097,200.0831912,1.587800429,Palearctic,0,0,0,2108,720,-86.20857123
EAS,Easter Is.,-109.3158806,-27.11727498,189.32,1.422758441,-0.625241108,160.5578749,140.656233,105.6596174,0.515612207,Oceania,1,1,1.5,41,20,-392.4303349
ECU,Ecuador,-78.39320695,-1.452910023,249013.54,3.370555154,-1.38279542,155.0129866,145.7442472,1200.754032,5.822237896,Neotropic,11,21,12,18323,2117,-1778.281673
EGY,Egypt,29.5313701,26.35781078,927977.39,-1.408579446,3.353461504,153.459082,83.15159488,200.1070655,1.940086146,Palearctic,4,7,130,1625,748,33.80637223
EHM,East Himalaya,92.91094723,27.79711548,132423.65,0.088223629,-0.698112306,77.00938082,9.607876253,1415.673235,7.813493831,Indomalaya,20,54,65,7866,3540,1636.851378
ELS,El Salvador,-88.86559446,13.73614153,20661.97,2.765504063,1.886094657,183.1891564,170.1988482,336.8545597,1.847456217,Neotropic,1,5,12,3526,1135,58.6523194
EQG,Equatorial Guinea,10.47599001,1.567921819,25005.36,3.639456135,-0.247797211,175.541709,163.5384482,241.0736678,1.069783471,Afrotropic,1,6,12,1509,598,-94.09480077
ERI,Eritrea,38.85291013,15.35884128,121464.34,0.730028176,3.629969917,202.4959043,162.8852624,586.2452327,3.041574107,Afrotropic,7,7,130,1842,1005,249.4663252
ETH,Ethiopia,39.6160194,8.626140571,1132217.8,1.157985331,2.405087748,173.8442562,159.6906912,710.5108921,4.216981232,Afrotropic,41,88,130,5192,1994,600.267442
FAL,Falkland Is.,-59.37234604,-51.7398244,11706.78,-2.013832006,-1.859118096,14.27445034,29.50099463,90.69309656,0.46152828,Neotropic,0,0,0.2,183,29,-410.4823473
FIJ,Fiji,160.7916367,-17.46392685,19381.54,4.628391483,-2.161479968,194.1254596,176.7813461,209.0760975,1.238854862,Oceania,3,7,2.9,1714,514,-217.1487623
FIN,Finland,26.2588367,64.49433632,333788.47,-3.812726982,-1.459101215,244.8017501,364.2317147,102.8074699,2.11473188,Palearctic,2,9,12,2780,593,-341.2293621
FLA,Florida,-82.48405094,28.65142195,146787.31,1.302137937,0.458643381,138.6350974,52.80358338,17.37821449,1.59353577,Nearctic,1,3,12,3163,1040,32.80640734
FOR,Føroyar,-6.863636018,62.050314,1589.99,1.29792045,-5.940614958,116.992933,199.0080817,131.2004769,0.599651459,Palearctic,0,1,1.5,360,162,-311.2021092
FRA,France,2.449730155,46.63235293,538198.81,-1.47805986,-1.132309204,31.22450126,33.38262118,416.3350932,2.051215941,Palearctic,7,15,45,6436,1557,-73.72342691
FRG,French Guiana,-53.24126852,3.924382847,83995.4,4.790419304,-0.96358578,205.311866,196.5094723,76.20425976,0.338720656,Neotropic,2,3,7,5251,1261,-143.9724787
GAB,Gabon,11.7971526,-0.590675636,261859.62,2.946638049,0.903776456,183.2270126,167.1112276,215.0232192,0.984185335,Afrotropic,6,34,12,5055,1710,342.3669187
GAL,Galápagos,-90.89331315,-0.562230836,7975.99,0.653315005,2.608469095,175.5573916,154.7598658,304.1994627,1.497094472,Neotropic,0,0,0.5,595,212,-305.9712846
GAM,"Gambia, The",-15.38562696,13.4529394,10755.91,1.650137351,4.06923089,211.3207561,179.7900492,15.09767114,0.38225738,Afrotropic,0,2,30,800,617,59.97475392
GEO,Georgia,-83.4466779,32.65409017,152555.87,-0.028259066,-0.314337252,81.19285063,38.78284528,145.3971796,1.652512889,Nearctic,4,1,16,3042,1016,31.85776999
GER,Germany,10.39233019,51.11015178,356279.08,-1.948888242,-1.332750373,44.03526941,146.2190935,239.4499357,0.875484072,Palearctic,15,23,45,4300,1108,-115.8001987
GGI,Gulf of Guinea Is.,7.976244143,2.369405535,3207.35,4.043888557,-1.139279216,169.8428688,159.7344005,508.7640324,2.314807525,Afrotropic,3,7,0.4,1938,883,109.1776408
GHA,Ghana,-1.207050125,7.959639297,240041,2.600552681,2.009931933,206.3676775,195.5250877,94.13916243,0.943201098,Afrotropic,22,67,15,3158,1698,691.758943
GIL,Gilbert Is.,174.3217036,-0.075627923,450.96,4.309106904,-0.954886034,233.790175,231.3107591,2.085598768,0.485835918,Oceania,0,0,5,96,80,-342.908227
GNB,Guinea-Bissau,-14.98748338,12.01619646,34101.87,2.908559878,3.00180926,205.3573716,179.6146534,29.06778174,0.357342168,Afrotropic,5,11,15,1420,947,271.8603337
GNL,Greenland,-41.39096492,74.71896346,2144642.02,-7.285079462,-5.266359414,295.1274893,400.98823,902.3923934,5.938086813,Nearctic,2,2,4,522,158,-346.0642641
GRB,Great Britain,-2.667712547,54.1326318,230148.77,-1.196604721,-2.32061361,66.73607925,151.3156554,159.0326394,1.312486058,Palearctic,8,16,12,3041,740,-243.9517229
GRC,Greece,22.67457493,39.36723826,117440.53,-1.546204191,0.506153681,66.41720869,11.20477419,435.1161779,2.587677096,Palearctic,2,11,45,5367,1404,-23.07130567
GST,Gulf States,53.87451176,24.12052144,82594.01,-0.224882827,4.674360605,200.7809908,126.6098,97.88271626,0.693398959,Palearctic,1,2,70,726,411,-131.9277185
GUA,Guatemala,-90.35694443,15.70230638,109376.06,3.263271261,0.199962337,164.2880117,142.2364102,789.1757677,4.279956857,Neotropic,18,41,12,8305,1824,-162.7812516
GUI,Guinea,-10.94184026,10.43853955,246052.04,2.912920029,2.184726517,195.5252131,172.5701296,223.5673705,1.526622649,Afrotropic,7,30,15,3555,1761,679.1276127
GUY,Guyana,-58.97416751,4.792379697,211602.57,4.006279544,-0.028153334,196.4626766,184.7079605,223.0380168,1.194121928,Neotropic,2,13,7,6467,1431,-205.6291479
HAI,Haiti,-72.68384348,18.93893862,27344.73,2.360050164,1.042987047,186.8046212,170.8587438,369.9332373,2.35945794,Neotropic,1,3,7,3709,919,-192.2104853
HAW,Hawaii,-156.3821741,20.27443256,16919.76,2.105936471,-1.41744035,142.9551371,128.9202193,866.7176771,4.593614657,Oceania,2,3,1.5,1307,134,-519.6123606
HBI,Howland-Baker Is.,-176.5780454,0.605031764,4.94,5.541533332,-1.953872587,,,,,Oceania,0,0,0,12,9,-397.9056282
HMD,Heard-McDonald Is.,73.49727342,-53.09067804,400.98,-2.63919085,-3.97812419,60.19643714,126.7769221,570.792494,3.452376004,Antarctica,0,0,0,11,1,-405.715121
HON,Honduras,-86.6201546,14.81592872,112565.21,2.613884754,0.706300452,177.355666,156.7386813,482.3754918,2.644867394,Neotropic,3,7,12,6697,1792,111.5542123
HUN,Hungary,19.41351505,47.1665173,92734.84,-2.345039745,-0.074787876,3.458351639,116.4676492,82.45838293,0.611222155,Palearctic,2,5,45,2572,1051,156.3961208
ICE,Iceland,-18.60571912,64.99764841,102279.37,-2.421658266,-3.59193967,205.5341629,309.3354781,371.8351663,2.032701142,Palearctic,2,3,1.1,789,202,-352.9296677
IDA,Idaho,-114.6539269,44.39671877,215982.41,-3.486357946,0.017075405,98.89280279,191.1800168,510.92836,2.776299427,Nearctic,3,2,16,2418,897,31.73421868
ILL,Illinois,-89.15471894,40.12111514,150021.51,-2.196794616,-0.357884852,100.0901658,262.027142,39.12111965,1.438232497,Nearctic,1,3,16,2320,1051,204.4039174
IND,India,78.38500961,21.72683562,2676362.98,1.39309214,3.429333391,199.7463461,140.5964262,231.2190821,1.373367687,Indomalaya,53,225,65,7898,3759,1849.75515
INI,Indiana,-86.28535884,39.91382309,94673.23,-1.990776233,-0.715221058,109.0546096,252.4375045,49.86788404,1.155843838,Nearctic,0,0,16,2017,960,171.1275775
IOW,Iowa,-93.49640075,42.07863115,145044.24,-2.912927954,0.183545971,154.3048115,307.2594557,65.61468253,1.003303827,Nearctic,0,0,16,1590,852,144.4741218
IRE,Ireland,-7.896570492,53.42679384,83650.54,-0.670073318,-2.557006861,39.95940222,104.9196739,92.4668724,0.539756192,Palearctic,4,5,12,1444,553,-126.7118374
IRK,Irkutsk,106.3584418,57.09665491,769899.56,-5.960149963,-0.610521501,147.4552782,346.601564,321.89511,2.41353636,Palearctic,1,2,40,1705,724,-5.434198113
IRN,Iran,54.30142285,32.56479713,1624420.19,-2.068238102,2.766532442,100.9577036,11.73001089,683.6540675,5.174837869,Palearctic,17,68,60,8185,1569,-394.9203961
IRQ,Iraq,43.7722378,33.04801462,436492.38,-1.479178533,3.852422931,140.3456233,44.02343368,318.5455114,2.546581236,Palearctic,6,22,90,3109,885,-111.9062077
ITA,Italy,12.15507355,43.52557329,250297.16,-1.546397656,-0.548660915,38.62791053,36.60889697,631.4920451,3.960351093,Palearctic,8,32,45,6102,1630,62.90595428
IVO,Ivory Coast,-5.555505006,7.631719608,322724.91,2.58426041,1.75796408,196.646157,186.2169623,123.5848984,0.693980309,Afrotropic,21,69,15,3779,1852,727.4540157
JAM,Jamaica,-77.31974834,18.15132857,11073.71,3.075213919,-0.121750668,185.376239,173.0220119,270.8316778,2.108923323,Neotropic,1,3,7,3083,906,-85.95302231
JAP,Japan,138.0289485,37.6020908,370404.88,-0.674294496,-1.778490152,18.9015811,112.9916368,388.4025651,3.910938936,Palearctic,3,13,35,5484,1818,368.6393602
JAW,Jawa,110.0767031,-7.288634373,131309.21,4.30171124,-0.629007297,193.2580771,186.5801061,415.5320082,2.798009111,Indomalaya,5,15,65,5393,2540,1107.975509
JNF,Juan Fernández Is.,-79.537658,-33.66269944,151.71,0.076049417,-0.612951642,115.5350889,90.40468725,108.2186468,0.569937096,Neotropic,0,0,0.2,258,40,-413.770382
KAM,Kamchatka,163.0080135,58.92828799,461775.69,-5.042623295,-2.191663013,160.9010173,303.9460915,340.6016482,3.217129408,Palearctic,3,6,25,1146,385,-237.9407128
KAN,Kansas,-98.36925056,38.48363463,211821.47,-2.393289722,1.265708492,66.62343225,240.1847878,248.5017225,0.934802335,Nearctic,2,1,16,1745,827,89.94551671
KAZ,Kazakhstan,67.30130123,48.16004423,2715439.12,-4.39616352,0.616717044,25.0151132,201.1476696,406.6043793,3.466329692,Palearctic,1,1,40,5308,1308,-107.831385
KEG,Kerguelen,69.47951572,-49.28875156,7440.04,-1.971717669,-3.21705244,21.72122178,73.91214809,226.8219373,1.506958946,Antarctica,0,0,0.09,32,6,-404.7157708
KEN,Kenya,37.85786204,0.529779858,584461.47,1.25013364,2.710659858,187.4462587,171.2996049,639.0567094,3.842990841,Afrotropic,14,56,200,6398,2348,724.515844
KER,Kermadec Is.,-177.9154558,-29.28166036,50.12,2.745814176,-2.226923972,144.9690297,119.5649999,101.5541425,0.505914376,Oceania,0,0,0.6,129,34,-395.1949623
KGZ,Kirgizistan,74.55549193,41.46490869,199306.01,-4.646227695,-0.569483262,47.91173688,170.7583216,1002.373644,6.112446591,Palearctic,2,2,40,3909,925,-224.3119111
KHA,Khabarovsk,137.129087,54.58518626,819181.06,-6.067787776,-1.037011568,165.5204819,363.4309688,399.2002491,3.971141099,Palearctic,6,6,30,1864,852,92.27516833
KOR,Korea,127.4609226,38.51116984,220115.82,-1.976707208,-0.237768698,2.617385047,161.5382476,450.9646327,3.833917773,Palearctic,2,3,35,3235,1591,570.089894
KRA,Krasnoyarsk,95.90105951,67.2499994,2373417.94,-6.757733116,-2.107695894,206.9831003,402.5040464,277.874277,4.800978679,Palearctic,9,15,12,2156,801,-14.35291343
KRI,Kriti,24.94808966,35.24379017,8611.97,-0.726848068,1.041199865,103.3628011,46.34309922,407.5448951,2.23520231,Palearctic,0,1,9,1969,655,-124.7280803
KRY,Krym,34.3248095,45.27482524,25568.8,-2.404372865,-0.18830031,25.71197155,97.69709919,205.7701229,1.06447194,Palearctic,2,2,37,2251,909,75.54890928
KTY,Kentucky,-85.28771942,37.52748969,104091.11,-0.958721982,-0.799863665,34.06281548,192.843654,108.1642624,0.754610142,Nearctic,0,0,16,2122,914,105.124329
KUR,Kuril Is.,150.7974815,46.9490112,10624.99,-2.439914475,-3.292548229,81.77774898,224.0160427,263.2810708,1.919810295,Palearctic,0,1,8,1142,487,-135.1786843
KUW,Kuwait,47.59352635,29.34250656,16833.18,-1.080492241,4.634747294,168.8587822,72.24508478,74.84741754,0.33998849,Palearctic,1,1,90,364,186,-287.9641377
KZN,Kazan-retto,141.3086087,24.93904505,41.23,1.820148522,-0.377652706,192.3885193,150.6240438,101.0718391,0.868211951,Oceania,0,0,0.1,182,103,-336.2918402
LAB,Labrador,-61.95852761,54.28513132,286110.47,-4.461413745,-2.850600763,305.3698393,419.3786197,175.5336523,1.694013767,Nearctic,0,1,10,726,299,-243.9277185
LAO,Laos,103.7634132,18.50244318,230640.3,2.606267922,0.926255553,175.2573531,136.5409357,392.8848069,2.3151158,Indomalaya,6,59,65,5150,2576,1190.268741
LBR,Liberia,-9.307850737,6.448116623,96440.18,4.755997972,-0.524182236,190.4329217,182.413213,138.3491163,0.500384426,Afrotropic,7,24,15,2724,1290,366.4390371
LBS,Lebanon-Syria,38.37255385,34.95744231,198196.22,-1.846033675,2.81027485,109.8305548,22.63174187,313.5594344,1.762679488,Palearctic,5,10,90,3896,1120,-26.83531845
LBY,Libya,18.02318175,27.04405009,1620334.76,-1.438000942,3.242774442,149.0595333,83.31662483,225.4709222,1.621798126,Palearctic,2,4,130,1833,690,-63.81911067
LDV,Laccadive Is.,72.88334887,9.907591042,60.75,3.294599594,1.126039506,225.6233775,218.6947276,2.82548748,0.199292879,Indomalaya,0,0,3,182,165,-274.2918402
LEE,Leeward Is. Antigua & Barbuda Antilles,-62.28954902,16.92084641,3426.93,2.69066001,0.530487748,198.6378255,185.0132267,198.1341279,1.283251355,Neotropic,1,4,5,2078,822,21.50664265
LES,Lesotho,28.24284307,-29.58100531,30576.15,-1.579077397,0.493186141,67.71593384,14.54841933,468.5746363,2.896721542,Afrotropic,0,2,130,1646,708,-10.19427748
LIN,Line Is.,-157.2279334,0.833544513,622.25,4.734861013,-1.394241046,228.9631749,225.1685574,2.536057284,6.238961902,Oceania,0,0,1.6,50,34,-380.1448991
LOU,Louisiana,-92.01956256,31.07581713,119236.8,0.615458566,-0.725718995,74.38051883,71.46642435,30.51866897,0.948749173,Nearctic,2,8,16,2337,837,-12.83470384
LSI,Lesser Sunda Is.,123.0809057,-8.633694634,105588.48,3.048270776,1.047824688,196.7837055,187.1768773,353.5657636,2.047409779,Australasia,28,127,65,3081,1604,612.4279919
MAG,Magadan,128.5394239,65.14920159,1172002.12,-6.669907558,-1.940037937,205.5644367,358.8229926,326.4262455,2.510391036,Palearctic,4,8,25,1248,333,-309.37244
MAI,Maine,-69.22759999,45.39587882,83833.8,-3.057555726,-1.958402041,241.6287828,371.5664945,169.8014681,1.570886048,Nearctic,0,1,16,1657,814,93.71014409
MAN,Manitoba,-97.43005757,54.92648933,647597.12,-5.50031205,-0.974254723,324.1597605,449.7529561,110.0308807,3.027700737,Nearctic,1,3,10,1359,709,45.48126863
MAQ,Macquarie Is.,158.8921676,-54.61329532,127.74,-1.342661528,-3.716648874,1.319118553,21.07553652,77.8383323,0.36491536,Australasia,0,0,0.07,42,3,-409.6208421
MAS,Massachusetts,-71.80907678,42.25862899,21018.83,-2.069464539,-1.869963861,171.2970773,286.2923397,162.5172509,1.188515765,Nearctic,1,3,16,1867,887,126.7036469
MAU,Mauritius,57.55521154,-20.19562027,2061.56,2.816752828,-0.495852518,179.7341002,155.9314983,178.5628437,1.064953582,Afrotropic,1,2,0.4,1004,371,-224.8887005
MCI,Mozambique Channel Is.,44.84032317,-14.52701329,15.02,2.577346419,1.914764067,213.9299927,197.8066711,3.858612301,0.148305076,Afrotropic,0,0,1.5,72,53,-365.3360559
MCS,Marcus Is.,153.9526794,24.30723325,6.72,2.026090137,0.58465928,,,,,Oceania,0,0,0,10,9,-397.5246139
MDG,Madagascar,46.70598974,-19.37352737,594764.58,2.192190043,1.509519832,172.0933131,145.7226136,452.5734088,2.760289633,Afrotropic,1,13,1.5,11686,1152,-1478.885856
MDR,Madeira,-16.94699093,32.76736726,825.58,-0.429408648,0.105221126,114.3058802,87.45158174,396.6851473,1.96127311,Palearctic,0,0,0.6,815,348,-211.882853
MDV,Maldives,73.25213838,3.371680936,141.08,3.468802969,0.720981964,227.2541656,219.3083267,1.402477147,0.439223746,Indomalaya,1,0,2.5,155,143,-291.1481477
MIC,Michigan,-85.7362084,44.88051006,250223.33,-2.86665255,-0.948440373,216.4333285,313.5641912,83.98415076,1.712475923,Nearctic,3,1,16,2015,998,209.5085918
MIN,Minnesota,-94.1991062,46.34787407,224414.83,-3.92735673,-0.057901273,235.7606408,356.4015211,73.18310116,1.570181141,Nearctic,4,1,16,1877,970,207.7985756
MLI,Mali,-3.524352079,17.35036278,1256356,0.387090998,5.03959642,211.7004668,161.1219716,81.75825164,0.830156983,Afrotropic,15,47,30,1853,1101,343.3707467
MLW,Malawi,34.30698695,-13.21511579,118970.88,1.110622524,2.055737163,162.002216,135.5137094,414.0432027,2.236695776,Afrotropic,2,8,130,4731,1763,457.0912286
MLY,Malaya,102.1783995,4.028257809,132735.75,5.211075944,-1.88249198,199.8612471,187.1785688,300.51826,1.645901262,Indomalaya,9,33,65,8898,3116,1016.248021
MNT,Montana,-109.6239835,47.03479245,379971.72,-3.781910523,0.517052935,182.3910281,304.2531963,498.6446471,2.028880171,Nearctic,1,5,16,2243,925,93.07296631
MOL,Maluku,127.9904995,-1.420618756,60001.32,4.759842913,-1.624036668,201.6784855,193.1725732,335.5721894,1.719326951,Australasia,11,80,40,3310,1297,261.8018593
MON,Mongolia,103.083029,46.83520929,1558841.52,-5.516361892,0.738563766,74.25711576,231.9334559,538.017995,3.725693969,Palearctic,0,5,45,3002,1034,57.47805516
MOR,Morocco,-6.317545518,31.88413167,403595.14,-1.563605297,2.227885636,109.9857437,63.49736533,606.0580451,3.188313148,Palearctic,6,9,130,4247,1051,-162.7033208
MOZ,Mozambique,35.55224706,-17.26020232,788994.87,1.356750513,2.512095734,183.1345234,155.5630807,294.885408,1.410482317,Afrotropic,6,35,130,5495,2359,907.5437818
MPE,Marion-Prince Edward Is.,37.76015675,-46.85955871,337.16,1.010808961,-6.435103202,1.490057344,16.84715083,286.0745865,1.309172648,Antarctica,0,0,0.07,24,3,-406.1917137
MRN,Marianas,145.1964194,14.90032954,1196.88,4.310524991,-0.423392827,214.7381846,205.806753,116.4149217,0.750700323,Oceania,2,3,3,472,281,-213.5389077
MRQ,Marquesas,-139.5863238,-9.365536166,1091,3.464661027,-0.801438341,204.8626943,197.3577956,238.1324234,1.271794221,Oceania,1,2,1,365,106,-368.1546448
MRS,Marshall Is.,168.6103943,8.421679955,129.82,5.579423876,-1.889370189,225.4903625,223.6964447,2.515043496,0.628115114,Oceania,0,0,3,124,104,-324.2424267
MRY,Maryland,-76.79724029,39.04679397,25565.47,-1.327351107,-0.86195307,77.35367787,214.9539383,201.1640836,1.360447114,Nearctic,0,1,16,2231,987,157.3590519
MSI,Mississippi,-89.67327133,32.75582597,124141.12,0.144386442,-0.643047376,59.28028012,84.03395012,40.84641738,0.988974086,Nearctic,4,4,16,2306,834,-9.928982832
MSO,Missouri,-92.49049605,38.37437865,180284.64,-1.888452086,-0.105781518,68.47828071,244.8844293,76.2613549,0.974365737,Nearctic,1,1,16,2142,908,95.31418638
MTN,Mauritania,-10.33225759,20.25990345,1041434.6,-0.035478213,5.110400654,207.9402413,156.8310652,124.267427,1.67495879,Afrotropic,3,2,30,1010,630,32.96825676
MXC,Mexico Central,-98.58581435,19.13108595,66477.42,0.05566718,1.662083069,110.5697939,80.58340457,749.4335501,4.573131946,Neotropic,11,34,12,7515,1886,49.71938055
MXE,Mexico Northeast,-103.0607519,25.85226948,872715.63,-0.788289563,2.56651684,115.6811814,46.53239108,705.7800351,3.200409037,Nearctic,16,26,12,11290,2425,-130.4450326
MXG,Mexico Gulf,-96.405429,19.37738436,71383.62,2.436202171,1.035085854,159.8972688,110.3826307,571.5047169,3.005084666,Neotropic,11,24,12,7868,2154,250.4703639
MXI,Mexican Pacific Is.,-115.5597186,24.96193755,546.29,-0.364841941,2.337724987,136.5724784,107.8932651,313.7378076,3.259993139,Nearctic,0,0,0.06,277,83,-374.3900174
MXN,Mexico Northwest,-111.3789858,28.49122261,383352.7,-0.458478707,3.458368829,146.9887365,77.19909356,467.2369188,2.806008251,Nearctic,9,14,12,6998,1908,170.2115664
MXS,Mexico Southwest,-100.7023884,18.84794655,330144.68,1.30178405,2.396075299,158.0211351,127.7777579,743.4967366,3.732955776,Neotropic,61,182,12,14058,2452,-630.7687666
MXT,Mexico Southeast,-90.55872947,18.50799061,237292.9,2.406800151,1.609491517,183.9818221,149.3894368,469.2973934,2.104515162,Neotropic,14,27,12,9269,2088,-82.43012427
MYA,Myanmar,96.50882912,21.14042438,669941.63,2.48978121,1.1074706,170.0544267,126.7703999,619.4246637,3.84975697,Indomalaya,17,94,65,9637,4425,2184.463252
NAM,Namibia,17.07189693,-22.23553957,806696.89,-0.777592958,3.322241967,139.730032,94.41781228,361.2147729,1.805965551,Afrotropic,6,15,12,3801,1306,177.2628588
NAT,KwaZulu-Natal,30.72508497,-28.7085677,92855.45,-0.071605297,1.132082098,128.1604221,86.41070176,568.0216058,2.629535567,Afrotropic,2,1,150,5096,2083,707.5561264
NBR,New Brunswick,-66.37001739,46.63101173,72650.41,-3.121442504,-2.433037327,246.4709357,380.9049633,136.6051465,1.199896437,Nearctic,0,1,10,1137,601,-20.22614866
NCA,North Carolina,-79.38015679,35.54958921,128183.93,-0.435211659,-0.692977428,19.94539795,121.7733946,317.8409032,1.738218461,Nearctic,3,4,16,2944,1063,97.52746866
NCB,Nicobar Is.,93.60166544,7.507164884,1873.83,5.047506731,-1.305692745,222.7513485,213.536391,79.57507544,0.463426689,Indomalaya,3,5,2,1265,890,244.3889388
NCS,North Caucasus,42.86217833,44.34380339,252920.24,-2.579617895,-0.312112166,27.55174933,100.5621053,803.0165509,3.210975814,Palearctic,33,38,50,4119,1201,11.68159172
NDA,North Dakota,-100.4594152,47.44750074,182040.47,-4.297270252,0.523176421,237.5102072,371.4447124,150.7205966,1.010050146,Nearctic,2,3,16,1130,675,55.10740124
NEB,Nebraska,-99.79214759,41.52790501,199869.45,-3.108777342,1.141076726,122.5010659,286.3878157,305.3664012,0.793949383,Nearctic,4,3,16,1463,797,113.6685272
NEP,Nepal,83.938516,28.25300794,147416.22,0.210447817,0.074945876,81.82165227,16.40601354,1748.59929,9.439583635,Indomalaya,31,110,65,6245,3257,1662.663435
NET,Netherlands,5.600984813,52.25357257,35646.76,-1.789998164,-1.47649346,32.36321521,129.0037276,19.37253948,0.350673967,Palearctic,4,10,45,1932,759,-13.67931647
NEV,Nevada,-116.6521158,39.35827474,286386.45,-3.260259211,1.225330889,16.05265225,101.424783,419.507128,3.211026241,Nearctic,2,3,16,2834,917,-27.51674711
NFK,Norfolk Is.,166.1444772,-29.5504624,63.29,1.39277487,-1.482216677,151.547905,125.3581657,58.3833556,0.431953154,Australasia,0,0,0.7,359,91,-382.0116021
NFL,Newfoundland,-56.02938217,48.71653404,111788.94,-2.423791224,-3.270376949,234.5814405,378.1727308,138.8974733,1.115634472,Nearctic,1,1,10,1015,445,-152.9842789
NGA,Nigeria,8.105318389,9.593624582,912337.9,2.136046118,2.767013207,207.60545,185.1082675,222.899198,1.200572489,Afrotropic,73,530,12,4791,2284,966.6608008
NGR,Niger,9.397650573,17.42632346,1185868.7,-0.116467025,4.97732165,204.2016812,147.4533922,157.7496214,1.372515409,Afrotropic,2,13,130,1073,701,91.96630762
NIC,Nicaragua,-85.03470963,12.839712,128613.62,3.691580722,0.321961626,195.2301273,180.9607377,268.1059189,1.479776075,Neotropic,3,8,12,5878,1631,106.5795512
NLA,Netherlands Antilles,-68.69280777,12.18787645,795.31,1.949089185,2.441439276,215.992855,205.7008968,26.26372374,0.294350347,Neotropic,0,0,4.9,484,275,-221.8249932
NNS,Nansei-shoto,126.6998898,25.77340565,2112.04,2.776152895,-2.172009037,170.1486861,103.2414491,83.68981278,0.646376009,Indomalaya,0,5,30,1830,1004,250.7524107
NOR,Norway,14.07512794,64.44787198,319775.94,-2.737564824,-2.920735413,213.9097062,322.5965087,383.2248532,2.755621821,Palearctic,3,6,12,3204,672,-343.004385
NRU,Nauru,166.9300834,-0.522073311,29.05,4.809336522,-1.362018945,228.0846558,225.2789459,7.227335263,0.065410515,Oceania,1,2,3,57,51,-364.478449
NSC,Nova Scotia,-63.30227022,45.14835243,55214.92,-1.911043688,-2.900156138,214.0553196,351.1674684,91.15787858,0.722366272,Nearctic,1,2,10,1116,573,-44.22549894
NSW,New South Wales,147.0187875,-32.18031229,805377.88,-0.946086938,1.206491335,122.1941448,59.32848038,283.0802299,2.58737878,Australasia,16,28,40,5978,591,-952.4711617
NTA,Northern Territory,133.3652138,-19.41428342,1352712.1,0.366314766,3.590548501,195.2584163,137.1903397,182.5383368,1.970412871,Australasia,60,99,40,4075,732,-448.9360946
NUE,Niue,-169.8685868,-19.05190358,253.51,4.074513441,-1.644600983,200.3534135,185.5152494,10.03415486,0.050423912,Oceania,0,1,3,217,137,-308.9595897
NUN,Nunavut,-88.91446901,71.04867651,2062223.88,-7.608156844,-2.752620505,313.7505876,428.2303202,341.966068,3.943632278,Nearctic,1,1,7,620,223,-299.7339628
NWC,New Caledonia,165.6718498,-21.29461419,19283.15,2.822139965,-0.891830623,173.0350293,143.4459491,243.2828215,1.362273657,Australasia,10,33,3,3327,427,-611.4367619
NWG,New Guinea,140.8323211,-5.345952334,819977.45,5.430864361,-3.239785148,184.5356365,173.1135123,810.8076896,4.122749364,Australasia,234,994,40,13443,1654,-1311.606882
NWH,New Hampshire,-71.5792793,43.68999511,24156.76,-2.768782024,-1.935503615,221.7193838,342.0378139,222.9151148,1.477309788,Nearctic,0,0,16,1546,781,81.85643545
NWJ,New Jersey,-74.66262909,40.18920093,19814.24,-1.348729647,-1.175601057,108.8962996,230.2309596,90.68133657,1.113011534,Nearctic,0,3,16,2011,917,129.2706203
NWM,New Mexico,-106.1076877,34.42306424,315178.29,-2.515581375,1.995805787,15.34135562,90.07708528,455.9844129,3.258684846,Nearctic,11,12,16,3476,1304,237.1776759
NWT,Northwest Territories,-118.9823435,66.33106742,1336444.68,-6.679409874,-1.691095248,248.3195279,359.6028109,337.9285725,4.13032092,Nearctic,3,2,7,1040,410,-192.7469571
NWY,New York,-75.69458709,42.99492034,136791.98,-2.514351649,-1.504362643,200.9349868,309.5981191,200.5749086,1.588024078,Nearctic,7,8,16,2448,1082,211.0190048
NZN,New Zealand North,175.7272178,-38.57756133,114538.37,0.280971427,-2.514737889,84.48742093,39.85389839,280.4524943,1.772886069,Australasia,1,2,1,1495,135,-554.427701
NZS,New Zealand South,170.4796022,-44.02210597,152609.86,0.002637479,-3.386930764,47.75818906,1.966675419,484.2778682,2.319587853,Australasia,1,0,1,1927,107,-664.7267808
OFS,Free State,26.86433218,-28.61014393,130173.92,-1.434247797,1.866481413,102.4361017,39.91786833,177.1409331,1.275612511,Afrotropic,1,3,150,2607,1075,173.7283712
OGA,Ogasawara-shoto,142.1178032,27.00808255,76.68,1.347837777,-0.426103098,180.4955292,134.194046,83.55207957,0.355088265,Oceania,0,1,0.2,349,166,-305.1065308
OHI,Ohio,-82.70728238,40.41552797,116274.11,-2.058650467,-0.750389929,132.0171969,262.46912,57.33236233,0.778912087,Nearctic,1,1,16,2015,976,187.5085918
OKL,Oklahoma,-97.50981445,35.58437196,181132.66,-1.617538568,0.97288538,15.90417833,182.0908403,233.5953728,0.995162504,Nearctic,0,5,16,2294,951,109.3571027
OMA,Oman,56.11008523,20.60235556,309738.54,-0.062493624,4.191659189,206.1929808,142.2405101,263.0282317,1.52279073,Palearctic,3,7,130,1315,654,-1.136417679
ONT,Ontario,-85.83256685,50.07309622,1072460.51,-4.48158258,-1.382637449,310.497012,442.4556004,126.5436454,3.288702458,Nearctic,4,7,10,2210,1026,200.3597016
ORE,Oregon,-120.5408757,43.94031794,250842.64,-2.273882184,0.009463117,34.00218364,106.8882996,533.452547,2.24798076,Nearctic,14,23,16,3284,1050,19.7550447
PAK,Pakistan,68.78919432,29.35662228,796103.01,-1.008521913,3.717678781,158.3488085,70.66082702,883.904922,5.661490017,Indomalaya,11,48,65,4574,2254,978.0008479
PAL,Palestine,36.37619652,31.3079181,116277.07,-1.701920623,2.878875747,120.5817155,50.41176969,336.9644847,1.468606718,Palearctic,6,18,90,2789,960,24.05607371
PAN,Panama,-80.10899702,8.505429137,74842.96,4.580215487,-0.598072744,194.9356649,187.3383244,411.0140304,2.400346376,Neotropic,4,9,12,10116,1699,-632.7896628
PAR,Paraguay,-58.39095073,-23.23612805,399768.73,1.125408153,1.540974151,167.9111148,126.1094262,84.32632269,1.451624473,Neotropic,8,21,10,5327,1507,87.5489795
PEI,Prince Edward Is.,-63.24493637,46.39620383,5979.59,-2.709818331,-2.68710569,225.4637218,370.4695249,21.34180481,0.253528036,Nearctic,0,0,10,704,429,-109.7365617
PEN,Pennsylvania,-77.83950118,40.89843684,119165.43,-2.031945262,-1.203329123,148.1075817,265.5273287,162.280817,1.323579542,Nearctic,1,2,16,2204,1042,217.5027444
PER,Peru,-74.37540458,-9.163772192,1296132.98,1.960625869,-0.270221289,137.5902579,123.6312301,1631.365889,7.990558038,Neotropic,41,103,12,20704,2524,-1824.879148
PHI,Philippines,122.873632,11.74740395,295849.09,4.563213071,-0.864177838,197.1108113,183.3415435,384.0283506,1.986862481,Indomalaya,34,169,40,9335,2317,133.9964052
PHX,Phoenix Is.,-171.7279731,-3.419467314,91.07,2.859630207,1.636810368,234.265976,231.9166718,1.847453907,0.10243363,Oceania,0,0,0,29,20,-390.1442494
PIT,Pitcairn Is.,-128.44279,-24.505797,53.76,2.145916326,-0.789890214,180.4869741,160.2187144,29.04961937,0.150899832,Oceania,0,1,0.9,118,63,-364.0993839
POL,Poland,19.4009187,52.12472508,310490.85,-2.525326688,-0.642543866,100.0368608,244.6397641,127.5085726,0.669452535,Palearctic,5,8,40,2966,992,22.33631182
POR,Portugal,-7.962367688,39.69200296,88508.29,-0.703429284,0.496277177,95.78943073,54.6989891,263.0157068,1.741251768,Palearctic,2,6,45,2696,934,15.77323673
PRM,Primorye,134.7137746,45.16706365,164565.58,-4.541758894,-0.49143219,86.72821716,258.1265619,302.9742965,2.247761157,Palearctic,0,1,30,2122,1011,202.124329
PUE,Puerto Rico,-66.46614558,18.22091539,9275.31,2.910535173,0.140845944,190.8070802,175.1945011,226.302602,1.539632255,Neotropic,0,2,7,2393,842,-18.50310308
QLD,Queensland,144.5481933,-22.57373244,1733260.66,0.264344807,2.751265306,175.0560429,115.6668789,160.3747985,2.307911568,Australasia,43,134,40,8286,1231,-752.1616161
QUE,Québec,-71.75499676,53.38114914,1507114.33,-4.798921647,-2.25135049,337.297641,468.2393764,172.1730994,3.191264806,Nearctic,7,9,10,1972,865,84.70039836
REU,Réunion,55.53821274,-21.12162946,2652.28,1.997474058,-0.991118284,150.1674478,127.4091511,645.6082197,3.549979013,Afrotropic,0,1,0.3,992,340,-253.6026149
RHO,Rhode Is.,-71.55994566,41.68389685,2723.21,-1.714271753,-1.97139803,150.0049001,263.8169388,62.5516303,0.501049769,Nearctic,0,0,12,1344,714,53.33887557
ROD,Rodrigues,63.41351669,-19.71779025,116.83,2.151507865,0.384328775,192.7260132,173.0837677,91.1097511,0.459480392,Afrotropic,0,0,0.3,207,124,-320.0545184
ROM,Romania,24.96918232,45.84359796,236801.41,-2.504987531,-0.329317465,2.280174234,121.8048766,385.9314032,2.353148735,Palearctic,2,4,45,3580,1242,155.3649344
RUC,Central European Russia,39.80245698,54.88373842,849032.17,-3.47557609,-0.909825868,93.97631219,283.5934015,46.12101779,1.023776698,Palearctic,5,5,30,2074,890,90.26867117
RUE,East European Russia,53.73073876,56.12331852,732329.88,-4.121117791,-0.846112894,89.37210783,283.1588728,127.4379626,1.441005603,Palearctic,6,8,30,2544,981,91.73032039
RUN,North European Russia,45.85434037,64.50418421,1354617.54,-4.454352399,-1.673726959,207.6270643,375.7851419,95.81347938,2.472963936,Palearctic,5,8,12,1909,650,-118.2976525
RUS,South European Russia,44.67469326,48.91779832,435643.11,-3.43182029,0.14208928,17.32263464,207.7224588,71.17021526,1.671024038,Palearctic,3,2,40,2172,907,88.5989725
RUW,Northwest European Russia,31.24102708,58.78055975,194158.95,-3.255334523,-1.262744201,185.5881669,330.2591396,60.36847417,0.767100224,Palearctic,3,3,30,1538,718,20.38049248
RWA,Rwanda,29.91719523,-1.997987311,25255.22,1.250341124,0.648355826,134.4937871,131.5482982,344.6316127,1.904184063,Afrotropic,1,2,200,2537,1145,257.0638703
SAK,Sakhalin,142.7120755,50.3342599,75189.68,-4.538573019,-2.012371431,120.9543541,300.0619798,198.7573058,1.799333139,Palearctic,3,3,30,1266,556,-89.80156834
SAM,Samoa,-172.0319288,-13.79663847,3184.02,6.421094355,-3.740124972,203.7459772,197.7031961,386.3861937,2.092439193,Oceania,1,1,2.8,851,310,-256.7411097
SAR,Sardegna,9.030029004,40.09088088,24110.9,-1.09027393,0.833617706,82.45663134,33.86717643,272.984928,1.432113032,Palearctic,1,3,5,2085,803,1.173092747
SAS,Saskatchewan,-105.8900548,54.41922757,649128.47,-5.056310176,-0.55198218,298.0101499,418.7569118,145.1169902,2.796772368,Nearctic,2,4,10,1291,673,22.43575342
SAU,Saudi Arabia,44.58510242,24.02338171,1959076.17,-0.627781445,4.461813629,174.4552994,101.2778471,395.6997099,2.753532178,Palearctic,3,6,90,2079,990,189.3161355
SCA,South Carolina,-80.90042082,33.91755375,80554.77,-0.132743601,-0.30045927,64.03593202,66.6253974,102.1952109,1.027300836,Nearctic,0,3,16,2641,934,26.25112885
SCI,Society Is.,-149.8832556,-17.45187799,1534.72,3.432495367,-1.410331922,199.3095645,187.0951377,294.2496662,1.772663066,Oceania,1,2,1.1,617,203,-319.1624414
SCS,South China Sea,114.3182544,13.0701461,22.42,2.621697236,1.411152626,211.1763916,178.1944427,3.715582802,0.19367408,Indomalaya,0,0,2,210,180,-264.6260398
SCZ,Santa Cruz Is.,166.2240493,-10.99208388,855.15,8.679348763,-6.970963704,214.5705278,205.8255817,129.1845556,0.645594364,Australasia,2,7,3,298,124,-337.3906672
SDA,South Dakota,-100.2198562,44.43756367,198287.1,-3.683925043,0.940974479,180.3281386,334.9062962,257.1784102,1.013600056,Nearctic,2,2,16,1445,816,136.0976555
SEL,Selvagens,-15.86268648,30.14296023,1.87,,,,,,,Afrotropic,0,0,0.5,97,46,-377.0987342
SEN,Senegal,-14.46817708,14.36697739,196778.54,1.411159277,4.430020196,212.5677518,181.3328245,38.95660982,0.920874318,Afrotropic,9,29,30,2103,1270,464.7439644
SEY,Seychelles,55.5220677,-4.70189449,329.95,4.589362234,-1.01131279,206.0418339,197.7997332,159.7356129,0.748563492,Afrotropic,1,2,0.2,415,213,-270.6800013
SGE,South Georgia,-36.71862583,-54.35798161,3598.75,-1.466316289,-5.583878192,61.25014861,122.192487,403.473967,2.169816192,Antarctica,0,0,0.1,23,3,-406.0012066
SIC,Sicilia,14.14647287,37.56596761,26034.84,-1.133315641,1.208885519,91.08878414,38.2457106,335.9942308,1.941303058,Palearctic,1,6,20,2565,946,52.72967067
SIE,Sierra Leone,-11.79209994,8.560345771,72801.4,5.182717186,-0.106086102,201.8978189,188.752256,185.1878475,0.932952376,Afrotropic,4,13,15,2670,1390,476.7264221
SIN,Sinai,33.7680386,29.70447198,56757.09,-1.588976425,2.904533377,124.3524567,64.13622228,371.3293546,1.628260029,Palearctic,0,1,90,1255,528,-115.7059899
SOA,South Australia,135.8267162,-30.10453814,984499.76,-1.18487126,2.402026289,145.581911,79.06324388,159.5774768,2.118282827,Australasia,13,25,40,3205,265,-750.1948921
SOC,Socotra,53.78351902,12.49162925,3919.17,0.474951433,2.73953882,206.6510706,180.1482601,236.7587465,1.173420515,Afrotropic,1,1,2,803,296,-261.5967675
SOL,Solomon Is.,158.3399851,-8.147934436,37030.36,6.442293311,-4.23009532,204.0212167,195.2930251,322.015377,1.630519991,Australasia,24,87,30,2308,676,-168.3099971
SOM,Somalia,45.86255319,6.063705784,639039.91,0.937965634,3.77363688,209.3424206,186.5046235,372.6099286,2.090792506,Afrotropic,1,8,130,3149,1089,84.47350715
SPA,Spain,-3.551723404,40.39416926,493456.2,-1.588842426,0.649120164,71.42870327,21.65776554,402.1033716,2.685829864,Palearctic,16,19,45,6904,1515,-204.8807634
SRL,Sri Lanka,80.70426571,7.612357088,66570.3,3.886763398,0.304017815,212.8314406,196.3020977,304.6471123,1.878229877,Indomalaya,2,5,65,3712,2098,986.2179933
SSA,South Sandwich Is.,-26.65310473,-58.17275834,277.64,-1.530639287,-5.678902476,50.17124363,18.30305752,0,0.582168692,Antarctica,0,0,0,2,1,-404.0005569
STH,St. Helena,-5.717275315,-15.96202459,133.49,,,,,,,Afrotropic,0,0,0.5,90,22,-399.7651843
SUD,Sudan,30.08706657,13.88720329,2511560.36,0.572557251,4.406318783,208.6654006,165.2724466,185.8007031,1.662047068,Afrotropic,47,123,130,4034,2080,906.8746977
SUL,Sulawesi,121.2948301,-2.104068429,186830.72,4.044887974,-1.153952974,185.1042284,177.5748138,538.6860431,2.951135369,Australasia,25,106,65,4694,1647,348.1399924
SUM,Sumatera,101.6400768,-0.477595217,473039.83,5.206539145,-2.242572931,200.9264799,194.1145049,458.1907762,2.496050648,Indomalaya,14,33,65,7491,2549,717.2915517
SUR,Surinam,-55.91158943,4.126707567,145658.16,4.124674538,-0.02256677,201.4334611,192.8667202,120.9616957,0.56994942,Neotropic,7,12,7,4559,1225,-48.14154518
SVA,Svalbard,18.37151643,78.8294471,62502.86,-5.445702776,-3.982365319,278.6723281,408.3151364,260.6355481,1.990834511,Palearctic,0,0,0.4,198,43,-399.3399542
SWC,Southwest Caribbean,-85.14144436,15.43870928,356.92,4.128576718,0.060087052,206.4506297,189.905717,59.03441789,0.528846428,Neotropic,0,2,,265,220,-235.1039319
SWE,Sweden,16.74115723,62.78773775,443714.62,-3.428876539,-1.627421913,224.6113088,342.6493704,261.3128884,2.99783827,Palearctic,4,13,12,3876,777,-366.0251759
SWI,Switzerland,8.234587165,46.80257618,41397.59,-1.683672058,-2.924086472,27.81859024,94.55634188,795.3507191,4.195867687,Palearctic,9,7,45,3408,1104,50.13216066
SWZ,Swaziland,31.49719338,-26.5621158,17152.46,0.412299871,1.762860948,145.4950051,107.3089568,369.523034,1.887733855,Afrotropic,1,1,130,2627,1431,525.9182287
TAI,Taiwan,120.9594018,23.74833247,36246.34,3.128344383,-1.885916288,129.6952126,59.51540682,842.6874763,4.398095442,Indomalaya,9,24,30,4622,2084,798.8565057
TAN,Tanzania,34.8234036,-6.270196782,945436.31,1.213574966,2.098396337,169.4753461,154.6780871,469.5229469,2.28943836,Afrotropic,30,115,200,9727,2831,573.3176105
TAS,Tasmania,146.6009979,-41.94278479,68398.06,-0.383216215,-2.112569833,63.64819503,22.72216072,297.1835072,1.876312659,Australasia,2,8,40,1812,125,-624.8184609
TCI,Turks-Caicos Is.,-71.88207917,21.80869292,421.24,1.752961958,1.51060112,204.9721863,183.9067505,4.136711901,0.100993427,Neotropic,0,1,1.5,407,227,-255.1559443
TCS,Transcaucasus,45.58312388,41.01420856,185293.2,-2.383011001,-0.425080965,41.32444204,64.693918,891.0801321,4.617470088,Palearctic,13,25,50,5632,1389,-88.55569494
TDC,Tristan da Cunha,-11.15734365,-38.66545462,170.82,2.037000288,-5.251041441,66.17579603,41.31865621,434.6178192,1.698735627,Afrotropic,0,0,0.2,99,20,-403.4797484
TEN,Tennessee,-86.34752902,35.85105204,108923.77,-0.576511289,-0.926778519,6.263404964,148.2563235,181.7505501,0.956969975,Nearctic,1,1,16,2475,977,100.8753123
TEX,Texas,-99.35743679,31.49694154,685503.37,-1.05566554,1.646564119,57.17620395,84.37005311,419.0395836,2.263593012,Nearctic,4,10,16,4793,1506,188.2797866
THA,Thailand,101.0149076,15.11989714,514630.29,2.207103259,2.128582516,201.5384538,171.9761582,289.5172845,1.575293751,Indomalaya,12,39,65,11109,4173,1652.036758
TKM,Turkmenistan,59.38352408,39.12222047,471311.99,-2.620636258,2.74533381,86.94610861,32.41916963,209.2138647,1.438754245,Palearctic,1,2,60,2675,724,-190.2261136
TOG,Togo,0.975834462,8.534930227,57364.9,2.577229223,2.11926089,205.6662614,194.2239672,155.8802135,1.092375269,Afrotropic,4,23,15,2027,1249,458.2225062
TOK,Tokelau-Manihiki,-164.6701472,-9.770762035,64.69,3.849669356,0.166425294,227.8958282,224.25,3.110220151,0.373082014,Oceania,0,1,1.1,70,53,-364.9550417
TON,Tonga,-174.8245319,-19.98207653,778.5,3.595802317,-1.295457956,193.7424285,174.6442117,90.86384817,0.988904983,Oceania,2,2,3,522,306,-198.0642641
TRT,Trinidad-Tobago,-61.25263722,10.46836429,5049.82,3.86507486,-0.144097319,200.8642212,191.1092727,110.6555719,0.59224955,Neotropic,0,4,7,2569,1012,117.9676422
TUA,Tuamotu,-145.2654942,-16.02348622,289.23,3.378697357,-0.14806958,221.2605155,210.8828081,19.66122146,0.321738752,Oceania,0,1,1,153,94,-339.7671334
TUB,Tubuai Is.,-150.0686054,-23.09392209,99.1,2.840944378,-1.403785534,186.1791115,167.4882584,67.68648966,0.44083934,Oceania,0,1,0.8,378,150,-326.6312375
TUE,Turkey-in-Europe,27.29964162,41.26119862,23807.39,-1.658477957,0.283267646,60.3327505,41.92817193,131.4606793,0.806994476,Palearctic,0,2,0,2235,982,151.5970233
TUN,Tunisia,9.561555724,34.11124296,155424.32,-1.351917759,2.76479069,121.4233215,58.66352386,226.752925,1.954786416,Palearctic,1,8,130,2421,799,-66.8373027
TUR,Turkey,35.43587039,38.98893748,755552.45,-2.379522831,0.578614834,47.17148619,51.71791433,636.8998919,3.819947458,Palearctic,7,24,50,10065,1699,-623.0737992
TUV,Tuvalu,178.2011101,-7.587359998,53.05,7.050880061,-3.857621656,234.2010422,231.3791656,0,0,Oceania,0,0,8,53,41,-373.7164205
TVA,Tuva,94.79308741,51.57947047,169051.39,-6.080782452,-0.681716428,138.8601507,327.7875828,500.9092879,1.95279801,Palearctic,1,1,40,1697,621,-106.9101411
TVL,Northern Provinces,28.07826685,-25.26571051,336413.46,-0.618384647,2.237898637,131.8964293,82.12581513,382.581341,2.321222215,Afrotropic,2,8,150,5353,2231,806.5957941
TZK,Tadzhikistan,71.04218428,38.52781577,142284.16,-4.013640959,-0.358305584,37.8961971,141.6117545,1543.946379,8.53012576,Palearctic,5,5,65,4353,966,-267.8970765
UGA,Uganda,32.38624065,1.28008215,243148.47,1.855668857,1.038703473,177.5765321,166.0529561,283.7559509,1.894233095,Afrotropic,16,33,200,4743,2053,744.805143
UKR,Ukraine,31.11581544,49.06577305,603888.93,-2.737987363,-0.557270908,33.46173114,196.5745059,145.2107025,1.156585361,Palearctic,5,7,40,3285,1189,158.5645376
URU,Uruguay,-56.01217767,-32.79956891,177939.51,0.434262878,-0.690217108,125.8689492,65.22796147,66.72228018,0.880798873,Neotropic,0,4,10,2582,840,-56.50895052
UTA,Utah,-111.6746324,39.32520384,219603.9,-3.355142172,0.979616095,39.84239941,136.6265312,476.5623445,2.967564935,Nearctic,2,1,16,2975,1051,79.62174765
UZB,Uzbekistan,63.16950908,41.75042059,445985.92,-3.09883402,2.081716554,52.96166503,83.33557491,496.983646,2.69193644,Palearctic,3,7,50,3915,866,-284.4549539
VAN,Vanuatu,167.7055728,-16.20215409,12741.75,5.280677057,-3.105753652,189.6356326,173.2150919,254.4426073,1.293230696,Australasia,22,105,3,1356,504,-158.94721
VEN,Venezuela,-66.16904087,7.118817222,914092.13,3.65703572,0.54730646,194.050794,182.5373054,453.7101326,2.416604772,Neotropic,16,40,7,16286,2452,-1055.218651
VER,Vermont,-72.65980015,44.08247962,24649.97,-2.725857723,-1.694588635,231.5821986,350.6280131,194.879087,1.030620206,Nearctic,1,0,16,1672,831,107.8525372
VIC,Victoria,144.3078569,-36.85746645,227769.42,-1.114076505,0.181585391,92.52432877,41.76968828,276.6107582,1.903486151,Australasia,4,8,40,3368,264,-782.2475542
VIE,Vietnam,106.3040302,16.65164518,326604.32,2.511789709,0.736480379,179.1150126,137.1744537,424.7028154,2.767665305,Indomalaya,24,73,65,11738,4413,1772.207773
VNA,Venezuelan Antilles,-64.34912638,11.05814757,1407,2.112722091,2.097690981,214.4339624,203.9120123,105.215763,0.772632345,Neotropic,0,0,,827,426,-136.1689386
VRG,Virginia,-78.82589678,37.52180057,103868.21,-1.188789177,-0.715384515,39.21622641,185.0539433,288.0256459,1.459107128,Nearctic,3,3,16,2640,1048,140.441636
WAK,Wake Is.,166.638191,19.30151617,19.59,2.317291539,1.444783156,217.0916748,202.7555542,1.356465997,0.071686458,Oceania,0,0,0,22,16,-392.8106995
WAL,Wallis-Futuna Is.,-177.1439709,-13.78426596,166.98,5.618758302,-2.689953555,219.7243977,212.3337746,116.7180624,0.598099266,Oceania,0,1,2.8,305,202,-260.7242171
WAS,Washington,-120.4312306,47.38672446,173979.79,-1.912188753,-0.825098018,101.289151,178.8047238,484.0408001,2.589733663,Nearctic,11,16,16,2487,933,54.58922676
WAU,Western Australia,122.1782109,-25.46606468,2532612.29,-0.425141011,3.185535429,174.8583579,111.7814895,150.3950418,3.601954613,Australasia,40,68,30,10637,704,-1727.043877
WDC,District of Columbia,-77.00958958,38.91161047,159.88,-1.268458535,-0.643010446,69.48408162,210.8159554,30.7746137,0.228725371,Nearctic,0,0,16,1087,548,-63.70079219
WHM,West Himalaya,76.67316703,33.3215968,293853.83,-3.224915496,-0.81060207,10.48901635,100.6270028,1648.401467,10.71752637,Indomalaya,26,52,65,5605,2819,1346.587998
WIN,Windward Is.,-60.99581399,14.09530182,3817.25,3.707398072,-0.524113664,192.0640124,180.4504597,202.2725325,1.27860754,Neotropic,1,4,6.5,2027,830,39.22250625
WIS,Wisconsin,-89.73838902,44.64217154,169347.2,-3.303448717,-0.401697355,194.2620309,309.4131705,94.85341973,1.347397696,Nearctic,2,3,16,1916,984,214.3687976
WSA,Western Sahara,-13.13671746,24.6615821,269568.61,-0.610100108,3.579060648,166.9136821,127.1414373,121.3622888,1.472424516,Palearctic,0,0,90,394,180,-299.6793516
WSB,West Siberia,72.11695974,62.53729779,2549899.26,-5.337016249,-1.430869087,164.3475408,349.5718263,130.6284286,4.262491577,Palearctic,8,13,12,2255,881,46.78688076
WVA,West Virginia,-80.61195464,38.64123998,62483.96,-1.50655515,-1.126129842,87.72429568,230.5732946,254.3346171,1.172780095,Nearctic,0,0,16,1803,890,141.8961032
WYO,Wyoming,-107.5398654,42.99898778,253936.62,-4.009942389,0.38278397,109.5526457,227.873318,498.5868143,2.654220316,Nearctic,1,2,16,2287,932,91.69065262
XMS,Christmas Is.,105.7036983,-10.44411526,124.48,3.64264035,-0.411826918,205.818751,195.5670929,90.26234434,0.464643233,Indomalaya,0,0,0.1,215,166,-279.5785754
YAK,Yakutskiya,130.1157928,66.17394158,3049626.7,-7.68240086,-1.578062674,213.5974049,445.4260022,380.2844236,2.667106328,Palearctic,5,3,12,1859,560,-198.772296
YEM,Yemen,47.5687601,15.83691321,421439.84,-0.180015238,3.602311746,172.3039981,121.8246823,576.4125045,2.752838293,Palearctic,2,12,130,2073,998,198.4591783
YUG,Yugoslavia,18.72433855,44.16024112,255022.71,-1.843773551,-1.012036535,18.36945221,80.89911769,433.1595123,2.287506938,Palearctic,6,12,45,5481,1565,116.2108816
YUK,Yukon,-135.4981483,63.63575031,482164.08,-5.850845355,-1.363428955,165.4595246,288.8320771,467.2404965,2.335420588,Nearctic,1,5,20,1116,425,-192.2254989
ZAI,Zaire,23.6544568,-2.876231321,2336995.74,2.52131234,0.790250437,178.366228,168.4447526,338.5366091,1.702988902,Afrotropic,56,198,130,9471,2862,653.0874356
ZAM,Zambia,27.79788138,-13.45307891,754718.01,0.514755907,2.658960297,150.6964955,120.0170636,219.7235553,1.463705331,Afrotropic,7,24,150,6191,2052,467.9508198
ZIM,Zimbabwe,29.87176247,-19.00000691,391047.83,0.01508299,2.685307215,146.949921,110.581052,310.2489355,1.885824208,Afrotropic,3,10,150,5282,2221,810.1218003
